{"columns":["a","b"],"data":[{"row":[{"name":"Haji Ali Dargah","lat":"18.985","long":"72.81"},{"name":"Juhu Chowpatty","lat":"19.097908751344","long":"72.826390409804"}],"meta":[{"id":951,"type":"node","deleted":false},{"id":950,"type":"node","deleted":false}],"graph":{"nodes":[{"id":"950","labels":["MumbaiMaharashtra"],"properties":{"name":"Juhu Chowpatty","lat":"19.097908751344","long":"72.826390409804"}},{"id":"951","labels":["Mumbai"],"properties":{"name":"Haji Ali Dargah","lat":"18.985","long":"72.81"}}],"relationships":[]}},{"row":[{"name":"EsselWorld","lat":"19.232074419638","long":"72.805604197048"},{"name":"Haji Ali Dargah","lat":"18.985","long":"72.81"}],"meta":[{"id":952,"type":"node","deleted":false},{"id":951,"type":"node","deleted":false}],"graph":{"nodes":[{"id":"951","labels":["Mumbai"],"properties":{"name":"Haji Ali Dargah","lat":"18.985","long":"72.81"}},{"id":"952","labels":["Mumbai"],"properties":{"name":"EsselWorld","lat":"19.232074419638","long":"72.805604197048"}}],"relationships":[]}},{"row":[{"name":"Siddhivinayak Temple Mumbai","long":"72.830409","lat":"19.01692"},{"name":"EsselWorld","lat":"19.232074419638","long":"72.805604197048"}],"meta":[{"id":953,"type":"node","deleted":false},{"id":952,"type":"node","deleted":false}],"graph":{"nodes":[{"id":"952","labels":["Mumbai"],"properties":{"name":"EsselWorld","lat":"19.232074419638","long":"72.805604197048"}},{"id":"953","labels":["Mumbai"],"properties":{"name":"Siddhivinayak Temple Mumbai","long":"72.830409","lat":"19.01692"}}],"relationships":[]}},{"row":[{"name":"Gateway of India","long":"72.834705","lat":"18.921836"},{"name":"Siddhivinayak Temple Mumbai","long":"72.830409","lat":"19.01692"}],"meta":[{"id":954,"type":"node","deleted":false},{"id":953,"type":"node","deleted":false}],"graph":{"nodes":[{"id":"953","labels":["Mumbai"],"properties":{"name":"Siddhivinayak Temple Mumbai","long":"72.830409","lat":"19.01692"}},{"id":"954","labels":["Mumbai"],"properties":{"name":"Gateway of India","long":"72.834705","lat":"18.921836"}}],"relationships":[]}},{"row":[{"name":"Domestic Terminal- Chatrapathi Shivaji Airport- Mumbai","lat":"19.09767","long":"72.84887"},{"name":"Gateway of India","long":"72.834705","lat":"18.921836"}],"meta":[{"id":955,"type":"node","deleted":false},{"id":954,"type":"node","deleted":false}],"graph":{"nodes":[{"id":"954","labels":["Mumbai"],"properties":{"name":"Gateway of India","long":"72.834705","lat":"18.921836"}},{"id":"955","labels":["Mumbai"],"properties":{"name":"Domestic Terminal- Chatrapathi Shivaji Airport- Mumbai","lat":"19.09767","long":"72.84887"}}],"relationships":[]}},{"row":[{"name":"Delhi Domestic Airport","long":"77.10899691732","lat":"28.564584997877"},{"name":"Domestic Terminal- Chatrapathi Shivaji Airport- Mumbai","lat":"19.09767","long":"72.84887"}],"meta":[{"id":956,"type":"node","deleted":false},{"id":955,"type":"node","deleted":false}],"graph":{"nodes":[{"id":"955","labels":["Mumbai"],"properties":{"name":"Domestic Terminal- Chatrapathi Shivaji Airport- Mumbai","lat":"19.09767","long":"72.84887"}},{"id":"956","labels":["NewDelhi"],"properties":{"name":"Delhi Domestic Airport","long":"77.10899691732","lat":"28.564584997877"}}],"relationships":[]}}],"stats":{"contains_updates":false,"nodes_created":0,"nodes_deleted":0,"properties_set":0,"relationships_created":0,"relationship_deleted":0,"labels_added":0,"labels_removed":0,"indexes_added":0,"indexes_removed":0,"constraints_added":0,"constraints_removed":0}}